{
"type": "FeatureCollection",
"name": "alternateid_schools_05022025",
"crs": { "type": "name", "properties": { "name": "urn:ogc:def:crs:OGC:1.3:CRS84" } },
"features": [
{ "type": "Feature", "properties": { "name": "SCHOOL OF COMMUNICATION ARTS", "city": "RALEIGH", "county": "WAKE", "enrollment": 298, "id2020": "no", "id2023": "no", "hbcu": "no", "cc": "no", "address": "NA", "phone": "NA", "website": "NA", "idnot2023": "yes", "id2025": "no", "idnot2025": "yes" }, "geometry": { "type": "Point", "coordinates": [ -78.556244528069044, 35.942792063784331 ] } },
{ "type": "Feature", "properties": { "name": "WILKES COMMUNITY COLLEGE", "city": "WILKESBORO", "county": "WILKES", "enrollment": 2617, "id2020": "no", "id2023": "yes", "hbcu": "no", "cc": "yes", "address": "1328 S Collegiate Dr, Wilkesboro, NC 28697", "phone": "(336) 838-6100", "website": "https://www.wilkescc.edu/", "idnot2023": "no", "id2025": "yes", "idnot2025": "no" }, "geometry": { "type": "Point", "coordinates": [ -81.180504442558728, 36.138594744069984 ] } },
{ "type": "Feature", "properties": { "name": "SANDHILLS COMMUNITY COLLEGE", "city": "PINEHURST", "county": "MOORE", "enrollment": 3636, "id2020": "no", "id2023": "yes", "hbcu": "no", "cc": "yes", "address": "3395 Airport Rd, Pinehurst, NC 28374", "phone": "(910) 692-6185", "website": "https://www.sandhills.edu/", "idnot2023": "no", "id2025": "yes", "idnot2025": "no" }, "geometry": { "type": "Point", "coordinates": [ -79.408174779221198, 35.22239309236565 ] } },
{ "type": "Feature", "properties": { "name": "PIEDMONT BAPTIST COLLEGE", "city": "WINSTON SALEM", "county": "FORSYTH", "enrollment": 378, "id2020": "no", "id2023": "no", "hbcu": "no", "cc": "no", "address": "1715 College Dr, Roxboro, NC 27573", "phone": "(336) 599-1181", "website": "https://www.piedmontcc.edu/", "idnot2023": "yes", "id2025": "no", "idnot2025": "yes" }, "geometry": { "type": "Point", "coordinates": [ -80.249848290091947, 36.087861806389704 ] } },
{ "type": "Feature", "properties": { "name": "UNIVERSITY OF NORTH CAROLINA-WILMINGTON<br><i>Note: Physical ID cards only</i>", "city": "WILMINGTON", "county": "NEW HANOVER", "enrollment": 11839, "id2020": "yes", "id2023": "yes", "hbcu": "no", "cc": "no", "address": "601 College Rd, Wilmington, NC 28403", "phone": "(910) 962-3000", "website": "https://www.uncw.edu/", "idnot2023": "no", "id2025": "yes", "idnot2025": "no" }, "geometry": { "type": "Point", "coordinates": [ -77.879141244325524, 34.226759951541354 ] } },
{ "type": "Feature", "properties": { "name": "NASH COMMUNITY COLLEGE", "city": "ROCKY MOUNT", "county": "NASH", "enrollment": 2491, "id2020": "no", "id2023": "no", "hbcu": "no", "cc": "yes", "address": "522 N Old Carriage Rd, Rocky Mount, NC 27804", "phone": "(252) 443-4011", "website": "https://www.nashcc.edu/", "idnot2023": "yes", "id2025": "no", "idnot2025": "yes" }, "geometry": { "type": "Point", "coordinates": [ -77.905640272551537, 36.011420863398271 ] } },
{ "type": "Feature", "properties": { "name": "MITCHELL COMMUNITY COLLEGE", "city": "STATESVILLE", "county": "IREDELL", "enrollment": 2283, "id2020": "no", "id2023": "no", "hbcu": "no", "cc": "yes", "address": "500 W Broad St, Statesville, NC 28677", "phone": "(704) 878-3200", "website": "https://www.mitchellcc.edu/", "idnot2023": "yes", "id2025": "no", "idnot2025": "yes" }, "geometry": { "type": "Point", "coordinates": [ -80.893800151575149, 35.782967927307133 ] } },
{ "type": "Feature", "properties": { "name": "MARTIN COMMUNITY COLLEGE", "city": "WILLIAMSTON", "county": "MARTIN", "enrollment": 956, "id2020": "no", "id2023": "no", "hbcu": "no", "cc": "yes", "address": "1161 Kehukee Park Rd, Williamston, NC 27892", "phone": "(252) 792-1521", "website": "https://www.martincc.edu/", "idnot2023": "yes", "id2025": "no", "idnot2025": "yes" }, "geometry": { "type": "Point", "coordinates": [ -77.095595752799525, 35.837997157862212 ] } },
{ "type": "Feature", "properties": { "name": "LOUISBURG COLLEGE", "city": "LOUISBURG", "county": "FRANKLIN", "enrollment": 733, "id2020": "no", "id2023": "no", "hbcu": "no", "cc": "yes", "address": "501 N Main St, Louisburg, NC 27549", "phone": "(919) 496-2521", "website": "https://www.louisburg.edu/", "idnot2023": "yes", "id2025": "no", "idnot2025": "yes" }, "geometry": { "type": "Point", "coordinates": [ -78.297917013585661, 36.103883576931629 ] } },
{ "type": "Feature", "properties": { "name": "JOHN WESLEY COLLEGE", "city": "HIGH POINT", "county": "GUILFORD", "enrollment": 140, "id2020": "no", "id2023": "no", "hbcu": "no", "cc": "no", "address": "NA", "phone": "NA", "website": "NA", "idnot2023": "yes", "id2025": "no", "idnot2025": "yes" }, "geometry": { "type": "Point", "coordinates": [ -79.999580241977853, 35.993239519816129 ] } },
{ "type": "Feature", "properties": { "name": "ELIZABETH CITY STATE UNIVERSITY", "city": "ELIZABETH CITY", "county": "PASQUOTANK", "enrollment": 2664, "id2020": "yes", "id2023": "yes", "hbcu": "yes", "cc": "no", "address": "1704 Weeksville Rd, Elizabeth City, NC 27909", "phone": "(252) 335-3400", "website": "https://www.ecsu.edu/", "idnot2023": "no", "id2025": "yes", "idnot2025": "no" }, "geometry": { "type": "Point", "coordinates": [ -76.194564822578513, 36.26378759068632 ] } },
{ "type": "Feature", "properties": { "name": "CALDWELL COMMUNITY COLLEGE AND TECHNICAL INSTITUTE", "city": "HUDSON", "county": "CALDWELL", "enrollment": 3744, "id2020": "yes", "id2023": "yes", "hbcu": "no", "cc": "yes", "address": "2855 Hickory Blvd, Hudson, NC 28638", "phone": "(828) 726-2200", "website": "https://www.cccti.edu/", "idnot2023": "no", "id2025": "yes", "idnot2025": "no" }, "geometry": { "type": "Point", "coordinates": [ -81.482316914994186, 35.853833073133963 ] } },
{ "type": "Feature", "properties": { "name": "MOUNT OLIVE COLLEGE", "city": "MOUNT OLIVE", "county": "WAYNE", "enrollment": 2830, "id2020": "no", "id2023": "no", "hbcu": "no", "cc": "no", "address": "634 Henderson St, Mt Olive, NC 28365", "phone": "(800) 653-0854", "website": "https://www.umo.edu/", "idnot2023": "yes", "id2025": "no", "idnot2025": "yes" }, "geometry": { "type": "Point", "coordinates": [ -78.068479972016007, 35.203781002897685 ] } },
{ "type": "Feature", "properties": { "name": "SOUTH COLLEGE-ASHEVILLE", "city": "ASHEVILLE", "county": "BUNCOMBE", "enrollment": 109, "id2020": "no", "id2023": "no", "hbcu": "no", "cc": "no", "address": "NA", "phone": "NA", "website": "NA", "idnot2023": "yes", "id2025": "no", "idnot2025": "yes" }, "geometry": { "type": "Point", "coordinates": [ -82.614845595684869, 35.574858323331767 ] } },
{ "type": "Feature", "properties": { "name": "SOUTHWESTERN COMMUNITY COLLEGE", "city": "SYLVA", "county": "JACKSON", "enrollment": 1925, "id2020": "no", "id2023": "yes", "hbcu": "no", "cc": "yes", "address": "447 College Dr, Sylva, NC 28779", "phone": "(828) 339-4000", "website": "https://www.southwesterncc.edu/", "idnot2023": "no", "id2025": "yes", "idnot2025": "no" }, "geometry": { "type": "Point", "coordinates": [ -83.204529058191611, 35.350384444640746 ] } },
{ "type": "Feature", "properties": { "name": "GUILFORD COLLEGE", "city": "GREENSBORO", "county": "GUILFORD", "enrollment": 2682, "id2020": "no", "id2023": "yes", "hbcu": "no", "cc": "no", "address": "5800 W Friendly Ave, Greensboro, NC 27410", "phone": "(336) 316-2000", "website": "https://www.guilford.edu/", "idnot2023": "no", "id2025": "yes", "idnot2025": "no" }, "geometry": { "type": "Point", "coordinates": [ -79.888449442114322, 36.090104018150456 ] } },
{ "type": "Feature", "properties": { "name": "UNIVERSITY OF PHOENIX-CHARLOTTE CAMPUS", "city": "CHARLOTTE", "county": "MECKLENBURG", "enrollment": 1301, "id2020": "no", "id2023": "no", "hbcu": "no", "cc": "no", "address": "NA", "phone": "NA", "website": "NA", "idnot2023": "yes", "id2025": "no", "idnot2025": "yes" }, "geometry": { "type": "Point", "coordinates": [ -80.947843339710943, 35.151492254282502 ] } },
{ "type": "Feature", "properties": { "name": "APEX SCHOOL OF THEOLOGY", "city": "DURHAM", "county": "DURHAM", "enrollment": 73, "id2020": "no", "id2023": "no", "hbcu": "no", "cc": "no", "address": "NA", "phone": "NA", "website": "NA", "idnot2023": "yes", "id2025": "no", "idnot2025": "yes" }, "geometry": { "type": "Point", "coordinates": [ -78.910802832461187, 35.894809721221399 ] } },
{ "type": "Feature", "properties": { "name": "KING'S COLLEGE", "city": "CHARLOTTE", "county": "MECKLENBURG", "enrollment": 515, "id2020": "no", "id2023": "no", "hbcu": "no", "cc": "no", "address": "NA", "phone": "NA", "website": "NA", "idnot2023": "yes", "id2025": "no", "idnot2025": "yes" }, "geometry": { "type": "Point", "coordinates": [ -80.822456624786184, 35.213272061062504 ] } },
{ "type": "Feature", "properties": { "name": "WAKE TECHNICAL COMMUNITY COLLEGE", "city": "RALEIGH", "county": "WAKE", "enrollment": 11832, "id2020": "no", "id2023": "yes", "hbcu": "no", "cc": "yes", "address": "9101 Fayetteville Rd, Raleigh, NC 27603", "phone": "(919) 866-5000", "website": "https://www.waketech.edu/", "idnot2023": "no", "id2025": "yes", "idnot2025": "no" }, "geometry": { "type": "Point", "coordinates": [ -78.706854574636282, 35.650643237685472 ] } },
{ "type": "Feature", "properties": { "name": "WAKE FOREST UNIVERSITY", "city": "WINSTON SALEM", "county": "FORSYTH", "enrollment": 6716, "id2020": "yes", "id2023": "yes", "hbcu": "no", "cc": "no", "address": "1834 Wake Forest Rd, Winston-Salem, NC 27109", "phone": "(336) 758-5000", "website": "https://www.wfu.edu/", "idnot2023": "no", "id2025": "yes", "idnot2025": "no" }, "geometry": { "type": "Point", "coordinates": [ -80.27406477801614, 36.137122886946599 ] } },
{ "type": "Feature", "properties": { "name": "MID-ATLANTIC CHRISTIAN UNIVERSITY", "city": "ELIZABETH CITY", "county": "PASQUOTANK", "enrollment": 182, "id2020": "no", "id2023": "yes", "hbcu": "no", "cc": "no", "address": "715 N Poindexter St, Elizabeth City, NC 27909", "phone": "(252) 334-2000", "website": "https://www.macuniversity.edu/", "idnot2023": "no", "id2025": "no", "idnot2025": "yes" }, "geometry": { "type": "Point", "coordinates": [ -76.217657662371749, 36.304133180007355 ] } },
{ "type": "Feature", "properties": { "name": "PEACE COLLEGE", "city": "RALEIGH", "county": "WAKE", "enrollment": 668, "id2020": "no", "id2023": "no", "hbcu": "no", "cc": "no", "address": "15 E Peace St, Raleigh, NC 27604", "phone": "(919) 508-2000", "website": "https://www.peace.edu/", "idnot2023": "yes", "id2025": "no", "idnot2025": "yes" }, "geometry": { "type": "Point", "coordinates": [ -78.637378312063092, 35.78824672622293 ] } },
{ "type": "Feature", "properties": { "name": "LIVINGSTONE COLLEGE", "city": "SALISBURY", "county": "ROWAN", "enrollment": 895, "id2020": "yes", "id2023": "yes", "hbcu": "yes", "cc": "no", "address": "701 W Monroe St, Salisbury, NC 28144", "phone": "(704) 216-6000", "website": "https://www.livingstone.edu/", "idnot2023": "no", "id2025": "yes", "idnot2025": "no" }, "geometry": { "type": "Point", "coordinates": [ -80.481059471816664, 35.669213760688706 ] } },
{ "type": "Feature", "properties": { "name": "GREENSBORO COLLEGE", "city": "GREENSBORO", "county": "GUILFORD", "enrollment": 1230, "id2020": "no", "id2023": "no", "hbcu": "no", "cc": "no", "address": "815 W Market St, Greensboro, NC 27401", "phone": "(336) 272-7102", "website": "https://www.greensboro.edu/", "idnot2023": "yes", "id2025": "no", "idnot2025": "yes" }, "geometry": { "type": "Point", "coordinates": [ -79.80029090871227, 36.072665722132726 ] } },
{ "type": "Feature", "properties": { "name": "FAYETTEVILLE TECHNICAL COMMUNITY COLLEGE", "city": "FAYETTEVILLE", "county": "CUMBERLAND", "enrollment": 9950, "id2020": "no", "id2023": "no", "hbcu": "no", "cc": "yes", "address": "2201 Hull Rd, Fayetteville, NC 28303", "phone": "(910) 678-8400", "website": "https://www.faytechcc.edu/", "idnot2023": "yes", "id2025": "no", "idnot2025": "yes" }, "geometry": { "type": "Point", "coordinates": [ -78.924807441594581, 35.066489866217374 ] } },
{ "type": "Feature", "properties": { "name": "EDGECOMBE COMMUNITY COLLEGE", "city": "TARBORO", "county": "EDGECOMBE", "enrollment": 2426, "id2020": "yes", "id2023": "yes", "hbcu": "no", "cc": "yes", "address": "2009 W Wilson St, Tarboro, NC 27886", "phone": "(252) 823-5166", "website": "https://www.edgecombe.edu/", "idnot2023": "no", "id2025": "no", "idnot2025": "yes" }, "geometry": { "type": "Point", "coordinates": [ -77.576142570528475, 35.879043961893956 ] } },
{ "type": "Feature", "properties": { "name": "CENTRAL PIEDMONT COMMUNITY COLLEGE", "city": "CHARLOTTE", "county": "MECKLENBURG", "enrollment": 16636, "id2020": "yes", "id2023": "no", "hbcu": "no", "cc": "yes", "address": "1201 Elizabeth Ave, Charlotte, NC 28204", "phone": "(704) 330-2722", "website": "https://www.cpcc.edu/", "idnot2023": "yes", "id2025": "no", "idnot2025": "yes" }, "geometry": { "type": "Point", "coordinates": [ -80.830769277353966, 35.217480119743712 ] } },
{ "type": "Feature", "properties": { "name": "BREVARD COLLEGE", "city": "BREVARD", "county": "TRANSYLVANIA", "enrollment": 597, "id2020": "yes", "id2023": "yes", "hbcu": "no", "cc": "no", "address": "1 Brevard College Drive Brevard, NC 28712-3306", "phone": "(828) 883-8292", "website": "https://brevard.edu/", "idnot2023": "no", "id2025": "no", "idnot2025": "yes" }, "geometry": { "type": "Point", "coordinates": [ -82.73219385608833, 35.235897652688138 ] } },
{ "type": "Feature", "properties": { "name": "BLUE RIDGE COMMUNITY COLLEGE", "city": "FLAT ROCK", "county": "HENDERSON", "enrollment": 2089, "id2020": "no", "id2023": "no", "hbcu": "no", "cc": "yes", "address": "180 W Campus Dr, Flat Rock, NC 28731", "phone": "(828) 694-1700", "website": "https://www.blueridge.edu/", "idnot2023": "yes", "id2025": "no", "idnot2025": "yes" }, "geometry": { "type": "Point", "coordinates": [ -82.421046709250589, 35.307278264991403 ] } },
{ "type": "Feature", "properties": { "name": "BELMONT ABBEY COLLEGE", "city": "BELMONT", "county": "GASTON", "enrollment": 887, "id2020": "no", "id2023": "no", "hbcu": "no", "cc": "no", "address": "100 Belmont Mt Holly Rd, Belmont, NC 28012", "phone": "(704) 461-6700", "website": "https://www.belmontabbeycollege.edu/", "idnot2023": "yes", "id2025": "no", "idnot2025": "yes" }, "geometry": { "type": "Point", "coordinates": [ -81.042163600695147, 35.263571679594136 ] } },
{ "type": "Feature", "properties": { "name": "WINGATE UNIVERSITY", "city": "WINGATE", "county": "UNION", "enrollment": 1633, "id2020": "no", "id2023": "yes", "hbcu": "no", "cc": "no", "address": "211 E Wilson St, Wingate, NC 28174", "phone": "(704) 233-8000", "website": "https://www.wingate.edu/", "idnot2023": "no", "id2025": "yes", "idnot2025": "no" }, "geometry": { "type": "Point", "coordinates": [ -80.443661623825236, 34.985203385301048 ] } },
{ "type": "Feature", "properties": { "name": "SHAW UNIVERSITY", "city": "RALEIGH", "county": "WAKE", "enrollment": 2762, "id2020": "yes", "id2023": "yes", "hbcu": "yes", "cc": "no", "address": "118 E South St, Raleigh, NC 27601", "phone": "(919) 546-8200", "website": "https://www.shawu.edu/", "idnot2023": "no", "id2025": "yes", "idnot2025": "no" }, "geometry": { "type": "Point", "coordinates": [ -78.63798840203971, 35.771824045380413 ] } },
{ "type": "Feature", "properties": { "name": "CATAWBA COLLEGE", "city": "SALISBURY", "county": "ROWAN", "enrollment": 1288, "id2020": "no", "id2023": "yes", "hbcu": "no", "cc": "no", "address": "2300 W Innes St, Salisbury, NC 28144", "phone": "(704) 637-4111", "website": "https://www.catawba.edu/", "idnot2023": "no", "id2025": "yes", "idnot2025": "no" }, "geometry": { "type": "Point", "coordinates": [ -80.481699819546051, 35.690737707947982 ] } },
{ "type": "Feature", "properties": { "name": "PITT COMMUNITY COLLEGE", "city": "WINTERVILLE", "county": "PITT", "enrollment": 6091, "id2020": "no", "id2023": "yes", "hbcu": "no", "cc": "yes", "address": "1986 Pitt Tech Rd, Winterville, NC 28590", "phone": "(252) 493-7200", "website": "https://www.pittcc.edu/", "idnot2023": "no", "id2025": "yes", "idnot2025": "no" }, "geometry": { "type": "Point", "coordinates": [ -77.406505495002222, 35.548258716070634 ] } },
{ "type": "Feature", "properties": { "name": "NEW LIFE THEOLOGICAL SEMINARY", "city": "CHARLOTTE", "county": "MECKLENBURG", "enrollment": 42, "id2020": "no", "id2023": "no", "hbcu": "no", "cc": "no", "address": "NA", "phone": "NA", "website": "NA", "idnot2023": "yes", "id2025": "no", "idnot2025": "yes" }, "geometry": { "type": "Point", "coordinates": [ -80.802294914877663, 35.242769339331154 ] } },
{ "type": "Feature", "properties": { "name": "SURRY COMMUNITY COLLEGE", "city": "DOBSON", "county": "SURRY", "enrollment": 2910, "id2020": "no", "id2023": "no", "hbcu": "no", "cc": "yes", "address": "630 S Main St, Dobson, NC 27017", "phone": "(336) 386-8121", "website": "https://www.surry.edu/", "idnot2023": "yes", "id2025": "no", "idnot2025": "yes" }, "geometry": { "type": "Point", "coordinates": [ -80.714983115291361, 36.383553168414913 ] } },
{ "type": "Feature", "properties": { "name": "STANLY COMMUNITY COLLEGE", "city": "ALBEMARLE", "county": "STANLY", "enrollment": 2033, "id2020": "no", "id2023": "no", "hbcu": "no", "cc": "yes", "address": "141 College Dr, Albemarle, NC 28001", "phone": "(704) 991-0123", "website": "https://www.stanly.edu/", "idnot2023": "yes", "id2025": "no", "idnot2025": "yes" }, "geometry": { "type": "Point", "coordinates": [ -80.234099428690428, 35.337153658851044 ] } },
{ "type": "Feature", "properties": { "name": "SALEM COLLEGE", "city": "WINSTON SALEM", "county": "FORSYTH", "enrollment": 1109, "id2020": "no", "id2023": "no", "hbcu": "no", "cc": "no", "address": "601 S Church St, Winston-Salem, NC 27101", "phone": "(336) 721-2600", "website": "https://www.salem.edu/", "idnot2023": "yes", "id2025": "no", "idnot2025": "yes" }, "geometry": { "type": "Point", "coordinates": [ -80.240992672613388, 36.087378125345175 ] } },
{ "type": "Feature", "properties": { "name": "NORTH CAROLINA WESLEYAN COLLEGE", "city": "ROCKY MOUNT", "county": "NASH", "enrollment": 1752, "id2020": "yes", "id2023": "no", "hbcu": "no", "cc": "no", "address": "3400 N Wesleyan Blvd, Rocky Mount, NC 27804", "phone": "(252) 985-5100", "website": "https://www.ncwc.edu/", "idnot2023": "yes", "id2025": "no", "idnot2025": "yes" }, "geometry": { "type": "Point", "coordinates": [ -77.772546561056373, 36.012646245273658 ] } },
{ "type": "Feature", "properties": { "name": "NORTH CAROLINA CENTRAL UNIVERSITY", "city": "DURHAM", "county": "DURHAM", "enrollment": 8219, "id2020": "yes", "id2023": "yes", "hbcu": "yes", "cc": "no", "address": "1801 Fayetteville St, Durham, NC 27707", "phone": "(919) 530-6100", "website": "https://www.nccu.edu/", "idnot2023": "no", "id2025": "yes", "idnot2025": "no" }, "geometry": { "type": "Point", "coordinates": [ -78.900704628581025, 35.976067374579188 ] } },
{ "type": "Feature", "properties": { "name": "MONTGOMERY COMMUNITY COLLEGE", "city": "TROY", "county": "MONTGOMERY", "enrollment": 850, "id2020": "no", "id2023": "no", "hbcu": "no", "cc": "yes", "address": "1011 Page St, Troy, NC 27371", "phone": "(910) 898-9600", "website": "https://www.montgomery.edu/", "idnot2023": "yes", "id2025": "no", "idnot2025": "yes" }, "geometry": { "type": "Point", "coordinates": [ -79.890955970996103, 35.368620514833381 ] } },
{ "type": "Feature", "properties": { "name": "GUILFORD TECHNICAL COMMUNITY COLLEGE", "city": "JAMESTOWN", "county": "GUILFORD", "enrollment": 8984, "id2020": "no", "id2023": "no", "hbcu": "no", "cc": "yes", "address": "601 E Main St, Jamestown, NC 27282", "phone": "(336) 334-4822", "website": "https://www.gtcc.edu/about/campuses/jame", "idnot2023": "yes", "id2025": "no", "idnot2025": "yes" }, "geometry": { "type": "Point", "coordinates": [ -79.915623644461135, 35.996989872411035 ] } },
{ "type": "Feature", "properties": { "name": "FAYETTEVILLE STATE UNIVERSITY", "city": "FAYETTEVILLE", "county": "CUMBERLAND", "enrollment": 6072, "id2020": "yes", "id2023": "yes", "hbcu": "yes", "cc": "no", "address": "1200 Murchison Rd, Fayetteville, NC 28301", "phone": "(910) 672-1111", "website": "https://www.uncfsu.edu/", "idnot2023": "no", "id2025": "yes", "idnot2025": "no" }, "geometry": { "type": "Point", "coordinates": [ -78.894387405180822, 35.071926087346995 ] } },
{ "type": "Feature", "properties": { "name": "COASTAL CAROLINA COMMUNITY COLLEGE", "city": "JACKSONVILLE", "county": "ONSLOW", "enrollment": 4111, "id2020": "no", "id2023": "no", "hbcu": "no", "cc": "yes", "address": "444 Western Blvd, Jacksonville, NC 28546", "phone": "(910) 455-1221", "website": "https://www.coastalcarolina.edu/", "idnot2023": "yes", "id2025": "no", "idnot2025": "yes" }, "geometry": { "type": "Point", "coordinates": [ -77.387592429688866, 34.772885808586601 ] } },
{ "type": "Feature", "properties": { "name": "CLEVELAND COMMUNITY COLLEGE", "city": "SHELBY", "county": "CLEVELAND", "enrollment": 3047, "id2020": "yes", "id2023": "yes", "hbcu": "no", "cc": "yes", "address": "137 S Post Rd, Shelby, NC 28152", "phone": "(704) 669-6000", "website": "https://www.clevelandcc.edu/", "idnot2023": "no", "id2025": "yes", "idnot2025": "no" }, "geometry": { "type": "Point", "coordinates": [ -81.491670985268271, 35.282914390196012 ] } },
{ "type": "Feature", "properties": { "name": "BENNETT COLLEGE FOR WOMEN", "city": "GREENSBORO", "county": "GUILFORD", "enrollment": 572, "id2020": "yes", "id2023": "yes", "hbcu": "yes", "cc": "no", "address": "900 East Washington St.Greensboro, NC 27401", "phone": "(336) 273-4431", "website": "https://www.bennett.edu/", "idnot2023": "no", "id2025": "no", "idnot2025": "yes" }, "geometry": { "type": "Point", "coordinates": [ -79.778666478320446, 36.068958709390621 ] } },
{ "type": "Feature", "properties": { "name": "ASHEVILLE BUNCOMBE TECHNICAL COMMUNITY COLLEGE", "city": "ASHEVILLE", "county": "BUNCOMBE", "enrollment": 6337, "id2020": "no", "id2023": "yes", "hbcu": "no", "cc": "yes", "address": "340 Victoria Road, Asheville, North Carolina 28801", "phone": "(828) 398-7900", "website": "https://abtech.edu/", "idnot2023": "no", "id2025": "yes", "idnot2025": "no" }, "geometry": { "type": "Point", "coordinates": [ -82.554593054303595, 35.568024166786145 ] } },
{ "type": "Feature", "properties": { "name": "MARS HILL COLLEGE", "city": "MARS HILL", "county": "MADISON", "enrollment": 1308, "id2020": "yes", "id2023": "yes", "hbcu": "no", "cc": "no", "address": "100 Athletic St, Mars Hill, NC 28754", "phone": "(828) 689-1201", "website": "https://www.mhu.edu/", "idnot2023": "no", "id2025": "yes", "idnot2025": "no" }, "geometry": { "type": "Point", "coordinates": [ -82.552784309855411, 35.827089882615248 ] } },
{ "type": "Feature", "properties": { "name": "UNIVERSITY OF PHOENIX-RALEIGH CAMPUS", "city": "RALEIGH", "county": "WAKE", "enrollment": 221, "id2020": "no", "id2023": "no", "hbcu": "no", "cc": "no", "address": "NA", "phone": "NA", "website": "NA", "idnot2023": "yes", "id2025": "no", "idnot2025": "yes" }, "geometry": { "type": "Point", "coordinates": [ -78.729083198784707, 35.767250643694901 ] } },
{ "type": "Feature", "properties": { "name": "HOOD THEOLOGICAL SEMINARY", "city": "SALISBURY", "county": "ROWAN", "enrollment": 251, "id2020": "no", "id2023": "no", "hbcu": "no", "cc": "no", "address": "NA", "phone": "NA", "website": "NA", "idnot2023": "yes", "id2025": "no", "idnot2025": "yes" }, "geometry": { "type": "Point", "coordinates": [ -80.480257368205429, 35.644101710939402 ] } },
{ "type": "Feature", "properties": { "name": "WESTERN PIEDMONT COMMUNITY COLLEGE", "city": "MORGANTON", "county": "BURKE", "enrollment": 2823, "id2020": "no", "id2023": "yes", "hbcu": "no", "cc": "yes", "address": "1001 Burkemont Ave, Morganton, NC 28655", "phone": "(828) 438-6000", "website": "https://www.wpcc.edu/", "idnot2023": "no", "id2025": "yes", "idnot2025": "no" }, "geometry": { "type": "Point", "coordinates": [ -81.693028004185038, 35.727886460875709 ] } },
{ "type": "Feature", "properties": { "name": "WARREN WILSON COLLEGE", "city": "SWANNANOA", "county": "BUNCOMBE", "enrollment": 901, "id2020": "yes", "id2023": "yes", "hbcu": "no", "cc": "no", "address": "701 Warren Wilson Rd, Swannanoa, NC 28778", "phone": "(800) 934-3536", "website": "https://www.warren-wilson.edu/", "idnot2023": "no", "id2025": "yes", "idnot2025": "no" }, "geometry": { "type": "Point", "coordinates": [ -82.44030898856991, 35.613179498508664 ] } },
{ "type": "Feature", "properties": { "name": "ROBESON COMMUNITY COLLEGE", "city": "LUMBERTON", "county": "ROBESON", "enrollment": 2527, "id2020": "no", "id2023": "yes", "hbcu": "no", "cc": "yes", "address": "5160 Fayetteville Rd, Lumberton, NC 28360", "phone": "(910) 272-3700", "website": "https://www.robeson.edu/", "idnot2023": "no", "id2025": "no", "idnot2025": "yes" }, "geometry": { "type": "Point", "coordinates": [ -79.012713410230447, 34.679501412406793 ] } },
{ "type": "Feature", "properties": { "name": "ROANOKE-CHOWAN COMMUNITY COLLEGE", "city": "AHOSKIE", "county": "HERTFORD", "enrollment": 953, "id2020": "yes", "id2023": "yes", "hbcu": "no", "cc": "yes", "address": "109 Community College Rd, Ahoskie, NC 27910", "phone": "(252) 862-1200", "website": "https://www.roanokechowan.edu/", "idnot2023": "no", "id2025": "no", "idnot2025": "yes" }, "geometry": { "type": "Point", "coordinates": [ -77.022545735810141, 36.324431244411016 ] } },
{ "type": "Feature", "properties": { "name": "RICHMOND COMMUNITY COLLEGE", "city": "HAMLET", "county": "RICHMOND", "enrollment": 1472, "id2020": "no", "id2023": "no", "hbcu": "no", "cc": "yes", "address": "1042 Hamlet Ave, Hamlet, NC 28345", "phone": "(910) 410-1700", "website": "https://www.richmondcc.edu/", "idnot2023": "yes", "id2025": "no", "idnot2025": "yes" }, "geometry": { "type": "Point", "coordinates": [ -79.714440848438059, 34.906655367507845 ] } },
{ "type": "Feature", "properties": { "name": "MILLER-MOTTE TECHNICAL COLLEGE", "city": "WILMINGTON", "county": "NEW HANOVER", "enrollment": 707, "id2020": "no", "id2023": "no", "hbcu": "no", "cc": "no", "address": "NA", "phone": "NA", "website": "NA", "idnot2023": "yes", "id2025": "no", "idnot2025": "yes" }, "geometry": { "type": "Point", "coordinates": [ -77.883570875519197, 34.243539011077374 ] } },
{ "type": "Feature", "properties": { "name": "MEREDITH COLLEGE", "city": "RALEIGH", "county": "WAKE", "enrollment": 2168, "id2020": "yes", "id2023": "yes", "hbcu": "no", "cc": "no", "address": "3800 Hillsborough St, Raleigh, NC 27607", "phone": "(919) 760-8600", "website": "https://www.meredith.edu/", "idnot2023": "no", "id2025": "yes", "idnot2025": "no" }, "geometry": { "type": "Point", "coordinates": [ -78.688043379358973, 35.79453156054511 ] } },
{ "type": "Feature", "properties": { "name": "HERITAGE BIBLE COLLEGE", "city": "DUNN", "county": "HARNETT", "enrollment": 116, "id2020": "no", "id2023": "no", "hbcu": "no", "cc": "no", "address": "NA", "phone": "NA", "website": "NA", "idnot2023": "yes", "id2025": "no", "idnot2025": "yes" }, "geometry": { "type": "Point", "coordinates": [ -78.613297215604263, 35.268156442937851 ] } },
{ "type": "Feature", "properties": { "name": "FORSYTH TECHNICAL COMMUNITY COLLEGE", "city": "WINSTON SALEM", "county": "FORSYTH", "enrollment": 6978, "id2020": "yes", "id2023": "no", "hbcu": "no", "cc": "yes", "address": "2100 Silas Creek Pkwy, Winston-Salem, NC 27103", "phone": "(336) 723-0371", "website": "https://www.forsythtech.edu/", "idnot2023": "yes", "id2025": "no", "idnot2025": "yes" }, "geometry": { "type": "Point", "coordinates": [ -80.269361059806897, 36.069567792340649 ] } },
{ "type": "Feature", "properties": { "name": "CRAVEN COMMUNITY COLLEGE", "city": "NEW BERN", "county": "CRAVEN", "enrollment": 3039, "id2020": "no", "id2023": "no", "hbcu": "no", "cc": "yes", "address": "800 College Ct, New Bern, NC 28562", "phone": "(252) 638-7200", "website": "https://www.cravencc.edu/", "idnot2023": "yes", "id2025": "no", "idnot2025": "yes" }, "geometry": { "type": "Point", "coordinates": [ -77.101583897562591, 35.110557019338742 ] } },
{ "type": "Feature", "properties": { "name": "CHOWAN COLLEGE", "city": "MURFREESBORO", "county": "HERTFORD", "enrollment": 796, "id2020": "yes", "id2023": "yes", "hbcu": "no", "cc": "no", "address": "1 University Dr, Murfreesboro, NC 27855", "phone": "(252) 398-6230", "website": "https://www.chowan.edu/", "idnot2023": "no", "id2025": "yes", "idnot2025": "no" }, "geometry": { "type": "Point", "coordinates": [ -77.099719852414694, 36.436530356476446 ] } },
{ "type": "Feature", "properties": { "name": "CENTRAL CAROLINA COMMUNITY COLLEGE", "city": "SANFORD", "county": "LEE", "enrollment": 4707, "id2020": "no", "id2023": "no", "hbcu": "no", "cc": "yes", "address": "1105 Kelly Dr, Sanford, NC 27330", "phone": "(919) 775-5401", "website": "https://www.cccc.edu/locations/lee/locat", "idnot2023": "yes", "id2025": "no", "idnot2025": "yes" }, "geometry": { "type": "Point", "coordinates": [ -79.143099273043219, 35.471546549313906 ] } },
{ "type": "Feature", "properties": { "name": "CARTERET COMMUNITY COLLEGE", "city": "MOREHEAD CITY", "county": "CARTERET", "enrollment": 1642, "id2020": "no", "id2023": "no", "hbcu": "no", "cc": "yes", "address": "3505 Arendell St, Morehead City, NC 28557", "phone": "(252) 222-6000", "website": "https://www.carteret.edu/", "idnot2023": "yes", "id2025": "no", "idnot2025": "yes" }, "geometry": { "type": "Point", "coordinates": [ -76.754078776741153, 34.72418032561157 ] } },
{ "type": "Feature", "properties": { "name": "CAPE FEAR COMMUNITY COLLEGE", "city": "WILMINGTON", "county": "NEW HANOVER", "enrollment": 7501, "id2020": "yes", "id2023": "yes", "hbcu": "no", "cc": "yes", "address": "411 N Front St, Wilmington, NC 28401", "phone": "(910) 362-7000", "website": "https://www.cfcc.edu/", "idnot2023": "no", "id2025": "yes", "idnot2025": "no" }, "geometry": { "type": "Point", "coordinates": [ -77.949660189343248, 34.240201373985165 ] } },
{ "type": "Feature", "properties": { "name": "SAINT AUGUSTINES COLLEGE", "city": "RALEIGH", "county": "WAKE", "enrollment": 1163, "id2020": "yes", "id2023": "yes", "hbcu": "yes", "cc": "no", "address": "NA", "phone": "NA", "website": "NA", "idnot2023": "no", "id2025": "yes", "idnot2025": "no" }, "geometry": { "type": "Point", "coordinates": [ -78.620684538257706, 35.784501534062187 ] } },
{ "type": "Feature", "properties": { "name": "METHODIST COLLEGE", "city": "FAYETTEVILLE", "county": "CUMBERLAND", "enrollment": 2147, "id2020": "no", "id2023": "yes", "hbcu": "no", "cc": "no", "address": "5400 Ramsey St, Fayetteville, NC 28311", "phone": "(910) 630-7000", "website": "https://www.methodist.edu/", "idnot2023": "no", "id2025": "yes", "idnot2025": "no" }, "geometry": { "type": "Point", "coordinates": [ -78.876274697234805, 35.134307352495824 ] } },
{ "type": "Feature", "properties": { "name": "BLADEN COMMUNITY COLLEGE", "city": "DUBLIN", "county": "BLADEN", "enrollment": 1468, "id2020": "no", "id2023": "no", "hbcu": "no", "cc": "yes", "address": "7418 NC Hwy 41W Dublin, NC 28332", "phone": "(910) 879-5500", "website": "https://www.bladencc.edu/", "idnot2023": "yes", "id2025": "no", "idnot2025": "yes" }, "geometry": { "type": "Point", "coordinates": [ -78.729981518106925, 34.644412398542777 ] } },
{ "type": "Feature", "properties": { "name": "MONTREAT COLLEGE", "city": "MONTREAT", "county": "BUNCOMBE", "enrollment": 1017, "id2020": "no", "id2023": "no", "hbcu": "no", "cc": "no", "address": "310 Gaither Cir, Montreat, NC 28757", "phone": "(828) 669-8012", "website": "https://www.montreat.edu/", "idnot2023": "yes", "id2025": "no", "idnot2025": "yes" }, "geometry": { "type": "Point", "coordinates": [ -82.296920936163374, 35.646240231560355 ] } },
{ "type": "Feature", "properties": { "name": "GARDNER-WEBB UNIVERSITY", "city": "BOILING SPRINGS", "county": "CLEVELAND", "enrollment": 3709, "id2020": "yes", "id2023": "no", "hbcu": "no", "cc": "no", "address": "110 S Main St, Boiling Springs, NC 28017", "phone": "(704) 406-2361", "website": "https://www.gardner-webb.edu/", "idnot2023": "yes", "id2025": "no", "idnot2025": "yes" }, "geometry": { "type": "Point", "coordinates": [ -81.667262216104405, 35.248818592877846 ] } },
{ "type": "Feature", "properties": { "name": "JAMES SPRUNT COMMUNITY COLLEGE", "city": "KENANSVILLE", "county": "DUPLIN", "enrollment": 1390, "id2020": "no", "id2023": "no", "hbcu": "no", "cc": "yes", "address": "133 James Sprunt Dr, Kenansville, NC 28349", "phone": "(910) 296-2400", "website": "https://jamessprunt.edu/", "idnot2023": "yes", "id2025": "yes", "idnot2025": "no" }, "geometry": { "type": "Point", "coordinates": [ -77.977483721269422, 34.948197003318981 ] } },
{ "type": "Feature", "properties": { "name": "CAROLINA CHRISTIAN COLLEGE", "city": "WINSTON SALEM", "county": "FORSYTH", "enrollment": 40, "id2020": "no", "id2023": "no", "hbcu": "no", "cc": "no", "address": "NA", "phone": "NA", "website": "NA", "idnot2023": "yes", "id2025": "no", "idnot2025": "yes" }, "geometry": { "type": "Point", "coordinates": [ -80.192817541029626, 36.148409542872258 ] } },
{ "type": "Feature", "properties": { "name": "HAYWOOD COMMUNITY COLLEGE", "city": "CLYDE", "county": "HAYWOOD", "enrollment": 2023, "id2020": "no", "id2023": "yes", "hbcu": "no", "cc": "yes", "address": "185 Freedlander Dr, Clyde, NC 28721", "phone": "(828) 627-2821", "website": "https://www.haywood.edu/", "idnot2023": "no", "id2025": "no", "idnot2025": "yes" }, "geometry": { "type": "Point", "coordinates": [ -82.928871210122537, 35.526021744451207 ] } },
{ "type": "Feature", "properties": { "name": "PAMLICO COMMUNITY COLLEGE", "city": "GRANTSBORO", "county": "PAMLICO", "enrollment": 378, "id2020": "no", "id2023": "no", "hbcu": "no", "cc": "yes", "address": "5049 NC-306, Grantsboro, NC 28529", "phone": "(252) 249-1851", "website": "https://www.pamlicocc.edu/", "idnot2023": "yes", "id2025": "no", "idnot2025": "yes" }, "geometry": { "type": "Point", "coordinates": [ -76.833802480876329, 35.068523668957653 ] } },
{ "type": "Feature", "properties": { "name": "WESTERN CAROLINA UNIVERSITY", "city": "CULLOWHEE", "county": "JACKSON", "enrollment": 8665, "id2020": "yes", "id2023": "yes", "hbcu": "no", "cc": "no", "address": "1 University Dr, Cullowhee, NC 28723", "phone": "(828) 227-7211", "website": "https://www.wcu.edu/", "idnot2023": "no", "id2025": "yes", "idnot2025": "no" }, "geometry": { "type": "Point", "coordinates": [ -83.183825731571915, 35.310183196839986 ] } },
{ "type": "Feature", "properties": { "name": "HIGH POINT UNIVERSITY", "city": "HIGH POINT", "county": "GUILFORD", "enrollment": 2753, "id2020": "no", "id2023": "no", "hbcu": "no", "cc": "no", "address": "1 N University Pkwy, High Point, NC 27268", "phone": "(336) 841-9000", "website": "https://www.highpoint.edu/", "idnot2023": "yes", "id2025": "no", "idnot2025": "yes" }, "geometry": { "type": "Point", "coordinates": [ -79.992655737311296, 35.969807303425867 ] } },
{ "type": "Feature", "properties": { "name": "RANDOLPH COMMUNITY COLLEGE", "city": "ASHEBORO", "county": "RANDOLPH", "enrollment": 1988, "id2020": "no", "id2023": "no", "hbcu": "no", "cc": "yes", "address": "629 Industrial Park Ave, Asheboro, NC 27205", "phone": "(336) 633-0200", "website": "https://www.randolph.edu/", "idnot2023": "yes", "id2025": "yes", "idnot2025": "no" }, "geometry": { "type": "Point", "coordinates": [ -79.828154041760016, 35.673724730757385 ] } },
{ "type": "Feature", "properties": { "name": "VANCE - GRANVILLE COMMUNITY COLLEGE", "city": "HENDERSON", "county": "VANCE", "enrollment": 4057, "id2020": "no", "id2023": "no", "hbcu": "no", "cc": "yes", "address": "200 Community College Rd, Henderson, NC 27536", "phone": "(252) 492-2061", "website": "https://www.vgcc.edu/", "idnot2023": "yes", "id2025": "no", "idnot2025": "yes" }, "geometry": { "type": "Point", "coordinates": [ -78.490499010729877, 36.323111334302588 ] } },
{ "type": "Feature", "properties": { "name": "ART INSTITUTE OF CHARLOTTE", "city": "CHARLOTTE", "county": "MECKLENBURG", "enrollment": 820, "id2020": "no", "id2023": "no", "hbcu": "no", "cc": "no", "address": "NA", "phone": "NA", "website": "NA", "idnot2023": "yes", "id2025": "no", "idnot2025": "yes" }, "geometry": { "type": "Point", "coordinates": [ -80.927500942813793, 35.181784719846142 ] } },
{ "type": "Feature", "properties": { "name": "APPALACHIAN STATE UNIVERSITY", "city": "BOONE", "county": "WATAUGA", "enrollment": 14653, "id2020": "yes", "id2023": "yes", "hbcu": "no", "cc": "no", "address": "287 Rivers St., Boone, NC 28608", "phone": "828-262-2000", "website": "https://www.appstate.edu/", "idnot2023": "no", "id2025": "yes", "idnot2025": "no" }, "geometry": { "type": "Point", "coordinates": [ -81.675208010607349, 36.215277075491379 ] } },
{ "type": "Feature", "properties": { "name": "SOUTH PIEDMONT COMMUNITY COLLEGE", "city": "POLKTON", "county": "ANSON", "enrollment": 1967, "id2020": "no", "id2023": "no", "hbcu": "no", "cc": "yes", "address": "4209 Old Charlotte Hwy, Monroe, NC 28110", "phone": "(704) 272-7635", "website": "https://www.spcc.edu/", "idnot2023": "yes", "id2025": "no", "idnot2025": "yes" }, "geometry": { "type": "Point", "coordinates": [ -80.211850451726733, 35.000738772472914 ] } },
{ "type": "Feature", "properties": { "name": "MAYLAND COMMUNITY COLLEGE", "city": "SPRUCE PINE", "county": "AVERY", "enrollment": 1502, "id2020": "no", "id2023": "yes", "hbcu": "no", "cc": "yes", "address": "200 Mayland Dr, Spruce Pine, NC 28777", "phone": "(828) 765-7351", "website": "https://www.mayland.edu/", "idnot2023": "no", "id2025": "yes", "idnot2025": "no" }, "geometry": { "type": "Point", "coordinates": [ -82.016814507515775, 35.934533425676889 ] } },
{ "type": "Feature", "properties": { "name": "BRUNSWICK COMMUNITY COLLEGE", "city": "BOLIVIA", "county": "BRUNSWICK", "enrollment": 1033, "id2020": "no", "id2023": "no", "hbcu": "no", "cc": "yes", "address": "50 College Road NE Bolivia, NC 28422", "phone": "(910) 755-7300", "website": "https://www.brunswickcc.edu/", "idnot2023": "yes", "id2025": "no", "idnot2025": "yes" }, "geometry": { "type": "Point", "coordinates": [ -78.230402089246994, 34.038396888397841 ] } },
{ "type": "Feature", "properties": { "name": "CABARRUS COLLEGE OF HEALTH SCIENCES", "city": "CONCORD", "county": "CABARRUS", "enrollment": 315, "id2020": "no", "id2023": "no", "hbcu": "no", "cc": "no", "address": "401 Medical Park Drive Concord, NC 28025", "phone": "(704) 403-1555", "website": "https://www.cabarruscollege.edu/", "idnot2023": "yes", "id2025": "no", "idnot2025": "yes" }, "geometry": { "type": "Point", "coordinates": [ -80.599941997303262, 35.439170409974444 ] } },
{ "type": "Feature", "properties": { "name": "SOUTHEASTERN COMMUNITY COLLEGE", "city": "WHITEVILLE", "county": "COLUMBUS", "enrollment": 1814, "id2020": "no", "id2023": "no", "hbcu": "no", "cc": "yes", "address": "4564 Chadbourn Hwy, Whiteville, NC 28472", "phone": "(910) 642-7141", "website": "https://www.sccnc.edu/", "idnot2023": "yes", "id2025": "no", "idnot2025": "yes" }, "geometry": { "type": "Point", "coordinates": [ -78.78310878406441, 34.329699282607059 ] } },
{ "type": "Feature", "properties": { "name": "CATAWBA VALLEY COMMUNITY COLLEGE", "city": "HICKORY", "county": "CATAWBA", "enrollment": 4930, "id2020": "no", "id2023": "no", "hbcu": "no", "cc": "yes", "address": "2550 US Hwy 70 SE, Hickory, NC 28602", "phone": "(828) 327-7000", "website": "https://www.cvcc.edu/", "idnot2023": "yes", "id2025": "no", "idnot2025": "yes" }, "geometry": { "type": "Point", "coordinates": [ -81.286614056231116, 35.700079501463769 ] } },
{ "type": "Feature", "properties": { "name": "WAYNE COMMUNITY COLLEGE", "city": "GOLDSBORO", "county": "WAYNE", "enrollment": 3166, "id2020": "yes", "id2023": "yes", "hbcu": "no", "cc": "yes", "address": "3000 Wayne Memorial Dr, Goldsboro, NC 27534", "phone": "(919) 735-5151", "website": "https://www.waynecc.edu/", "idnot2023": "no", "id2025": "yes", "idnot2025": "no" }, "geometry": { "type": "Point", "coordinates": [ -77.946806674853548, 35.405197445454078 ] } },
{ "type": "Feature", "properties": { "name": "QUEENS UNIVERSITY OF CHARLOTTE", "city": "CHARLOTTE", "county": "MECKLENBURG", "enrollment": 2113, "id2020": "yes", "id2023": "yes", "hbcu": "no", "cc": "no", "address": "1900 Selwyn Ave, Charlotte, NC 28274", "phone": "(704) 337-2200", "website": "https://www.queens.edu/", "idnot2023": "no", "id2025": "yes", "idnot2025": "no" }, "geometry": { "type": "Point", "coordinates": [ -80.83105965661052, 35.18892737138372 ] } },
{ "type": "Feature", "properties": { "name": "UNIVERSITY OF NORTH CAROLINA AT PEMBROKE<br><i>Note: Physical ID cards only</i>", "city": "PEMBROKE", "county": "ROBESON", "enrollment": 5632, "id2020": "yes", "id2023": "yes", "hbcu": "no", "cc": "no", "address": "1 University Drive, Pembroke, NC 28372", "phone": "(910) 521-6000", "website": "https://www.uncp.edu/", "idnot2023": "no", "id2025": "yes", "idnot2025": "no" }, "geometry": { "type": "Point", "coordinates": [ -79.199498496963102, 34.689527607774892 ] } },
{ "type": "Feature", "properties": { "name": "BARTON COLLEGE", "city": "WILSON", "county": "WILSON", "enrollment": 1189, "id2020": "no", "id2023": "no", "hbcu": "no", "cc": "no", "address": "400 Atlantic Christian College Dr NE, Wilson, NC 27893", "phone": "252-399-6300", "website": "https://www.barton.edu/", "idnot2023": "yes", "id2025": "no", "idnot2025": "yes" }, "geometry": { "type": "Point", "coordinates": [ -77.911447905597981, 35.736953538609207 ] } },
{ "type": "Feature", "properties": { "name": "CAROLINAS COLLEGE OF HEALTH SCIENCES", "city": "CHARLOTTE", "county": "MECKLENBURG", "enrollment": 467, "id2020": "yes", "id2023": "no", "hbcu": "no", "cc": "no", "address": "NA", "phone": "NA", "website": "NA", "idnot2023": "yes", "id2025": "no", "idnot2025": "yes" }, "geometry": { "type": "Point", "coordinates": [ -80.83859261715682, 35.199930584959382 ] } },
{ "type": "Feature", "properties": { "name": "DAVIDSON COLLEGE", "city": "DAVIDSON", "county": "MECKLENBURG", "enrollment": 1683, "id2020": "yes", "id2023": "yes", "hbcu": "no", "cc": "no", "address": "405 N Main St, Davidson, NC 28035", "phone": "(704) 894-2230", "website": "https://www.davidson.edu/", "idnot2023": "no", "id2025": "yes", "idnot2025": "no" }, "geometry": { "type": "Point", "coordinates": [ -80.847918077470752, 35.49968355075243 ] } },
{ "type": "Feature", "properties": { "name": "DURHAM TECHNICAL COMMUNITY COLLEGE", "city": "DURHAM", "county": "DURHAM", "enrollment": 5495, "id2020": "no", "id2023": "yes", "hbcu": "no", "cc": "yes", "address": "1637 E Lawson St, Durham, NC 27703", "phone": "(919) 536-7200", "website": "https://www.durhamtech.edu/", "idnot2023": "no", "id2025": "yes", "idnot2025": "no" }, "geometry": { "type": "Point", "coordinates": [ -78.880973098633149, 35.974610313739902 ] } },
{ "type": "Feature", "properties": { "name": "COLLEGE OF THE ALBEMARLE", "city": "ELIZABETH CITY", "county": "PASQUOTANK", "enrollment": 2175, "id2020": "no", "id2023": "yes", "hbcu": "no", "cc": "yes", "address": "1208 N. Road St Elizabeth City, NC 27909", "phone": "(252) 335-0821", "website": "https://www.albemarle.edu/", "idnot2023": "no", "id2025": "yes", "idnot2025": "no" }, "geometry": { "type": "Point", "coordinates": [ -76.222044081424258, 36.324879640157434 ] } },
{ "type": "Feature", "properties": { "name": "DUKE UNIVERSITY<br><i>Note: Physical ID cards only</i>", "city": "DURHAM", "county": "DURHAM", "enrollment": 14075, "id2020": "yes", "id2023": "yes", "hbcu": "no", "cc": "no", "address": "2080 Duke University Rd, Durham, NC 27708", "phone": "(919) 684-8111", "website": "https://www.duke.edu/", "idnot2023": "no", "id2025": "yes", "idnot2025": "no" }, "geometry": { "type": "Point", "coordinates": [ -78.932340820068575, 35.999854355466518 ] } },
{ "type": "Feature", "properties": { "name": "CAMPBELL UNIVERSITY", "city": "BUIES CREEK", "county": "HARNETT", "enrollment": 6669, "id2020": "no", "id2023": "yes", "hbcu": "no", "cc": "no", "address": "143 Main St, Buies Creek, NC 27506", "phone": "(910) 893-1200", "website": "https://www.campbell.edu/", "idnot2023": "no", "id2025": "yes", "idnot2025": "no" }, "geometry": { "type": "Point", "coordinates": [ -78.737635958222072, 35.407906616517025 ] } },
{ "type": "Feature", "properties": { "name": "PFEIFFER UNIVERSITY MISENHEIMER CAMPUS", "city": "MISENHEIMER", "county": "STANLY", "enrollment": 2150, "id2020": "yes", "id2023": "yes", "hbcu": "no", "cc": "no", "address": "48380 US-52, Misenheimer, NC 28109", "phone": "(704) 463-1360", "website": "https://www.pfeiffer.edu/", "idnot2023": "no", "id2025": "no", "idnot2025": "yes" }, "geometry": { "type": "Point", "coordinates": [ -80.281351784080584, 35.483054581607561 ] } },
{ "type": "Feature", "properties": { "name": "NORTH CAROLINA STATE UNIVERSITY AT RALEIGH", "city": "RALEIGH", "county": "WAKE", "enrollment": 30148, "id2020": "yes", "id2023": "yes", "hbcu": "no", "cc": "no", "address": "Peele Hall, 10 Watauga Club Dr, Raleigh, NC 27607", "phone": "(919) 515-2011", "website": "https://www.ncsu.edu/", "idnot2023": "no", "id2025": "no", "idnot2025": "yes" }, "geometry": { "type": "Point", "coordinates": [ -78.664485307872809, 35.786479484989968 ] } },
{ "type": "Feature", "properties": { "name": "WINSTON-SALEM STATE UNIVERSITY", "city": "WINSTON SALEM", "county": "FORSYTH", "enrollment": 5566, "id2020": "yes", "id2023": "yes", "hbcu": "yes", "cc": "no", "address": "601 S. Martin Luther King Jr. Drive Winston-Salem, NC 27110", "phone": "336-750-2000", "website": "https://www.wssu.edu/", "idnot2023": "no", "id2025": "yes", "idnot2025": "no" }, "geometry": { "type": "Point", "coordinates": [ -80.226314049415521, 36.088784800982317 ] } },
{ "type": "Feature", "properties": { "name": "GASTON COLLEGE", "city": "DALLAS", "county": "GASTON", "enrollment": 5033, "id2020": "no", "id2023": "no", "hbcu": "no", "cc": "yes", "address": "201 US-321, Dallas, NC 28034", "phone": "(704) 922-6200", "website": "https://www.gaston.edu/", "idnot2023": "yes", "id2025": "no", "idnot2025": "yes" }, "geometry": { "type": "Point", "coordinates": [ -81.191098564581281, 35.313017198366701 ] } },
{ "type": "Feature", "properties": { "name": "ALAMANCE COMMUNITY COLLEGE", "city": "GRAHAM", "county": "ALAMANCE", "enrollment": 4576, "id2020": "no", "id2023": "yes", "hbcu": "no", "cc": "yes", "address": "1247 Jimmie Kerr Rd. Graham, NC", "phone": "(336) 578-2002", "website": "https://www.alamancecc.edu/", "idnot2023": "no", "id2025": "yes", "idnot2025": "no" }, "geometry": { "type": "Point", "coordinates": [ -79.356522873528391, 36.065630178322721 ] } },
{ "type": "Feature", "properties": { "name": "BEAUFORT COUNTY COMMUNITY COLLEGE", "city": "WASHINGTON", "county": "BEAUFORT", "enrollment": 1461, "id2020": "yes", "id2023": "yes", "hbcu": "no", "cc": "yes", "address": "5337 US-264, Washington, NC 27889", "phone": "(252) 946-6194", "website": "https://www.beaufortccc.edu/", "idnot2023": "no", "id2025": "yes", "idnot2025": "no" }, "geometry": { "type": "Point", "coordinates": [ -76.967031186135671, 35.532487338712706 ] } },
{ "type": "Feature", "properties": { "name": "LEES-MCRAE COLLEGE", "city": "BANNER ELK", "county": "AVERY", "enrollment": 883, "id2020": "yes", "id2023": "yes", "hbcu": "no", "cc": "no", "address": "191 Main St W, Banner Elk, NC 28604", "phone": "(828) 898-5241", "website": "https://www.lmc.edu/", "idnot2023": "no", "id2025": "yes", "idnot2025": "no" }, "geometry": { "type": "Point", "coordinates": [ -81.873322303406397, 36.162645598294127 ] } },
{ "type": "Feature", "properties": { "name": "UNIVERSITY OF NORTH CAROLINA - ASHEVILLE<br><i>Note: Physical ID cards only</i>", "city": "ASHEVILLE", "county": "BUNCOMBE", "enrollment": 3499, "id2020": "yes", "id2023": "yes", "hbcu": "no", "cc": "no", "address": "1 University Heights, Asheville, NC 28804", "phone": "(828) 251-6600", "website": "https://www.unca.edu/", "idnot2023": "no", "id2025": "yes", "idnot2025": "no" }, "geometry": { "type": "Point", "coordinates": [ -82.564198752092025, 35.617080278647627 ] } },
{ "type": "Feature", "properties": { "name": "DAVIDSON COUNTY COMMUNITY COLLEGE", "city": "THOMASVILLE", "county": "DAVIDSON", "enrollment": 3123, "id2020": "no", "id2023": "yes", "hbcu": "no", "cc": "yes", "address": "297 Davidson Community College Rd, Thomasville, NC 27360", "phone": "(336) 249-8186", "website": "https://www.davidsonccc.edu/", "idnot2023": "no", "id2025": "yes", "idnot2025": "no" }, "geometry": { "type": "Point", "coordinates": [ -80.181723469648333, 35.865909436237388 ] } },
{ "type": "Feature", "properties": { "name": "DEVRY UNIVERSITY - NORTH CAROLINA", "city": "CHARLOTTE", "county": "MECKLENBURG", "enrollment": 193, "id2020": "no", "id2023": "no", "hbcu": "no", "cc": "no", "address": "NA", "phone": "NA", "website": "NA", "idnot2023": "yes", "id2025": "no", "idnot2025": "yes" }, "geometry": { "type": "Point", "coordinates": [ -80.828351786773069, 35.151051775066705 ] } },
{ "type": "Feature", "properties": { "name": "SAINT ANDREWS PRESBYTERIAN COLLEGE", "city": "LAURINBURG", "county": "SCOTLAND", "enrollment": 781, "id2020": "no", "id2023": "yes", "hbcu": "no", "cc": "no", "address": "NA", "phone": "NA", "website": "NA", "idnot2023": "no", "id2025": "no", "idnot2025": "yes" }, "geometry": { "type": "Point", "coordinates": [ -79.480726386512373, 34.749569300621047 ] } },
{ "type": "Feature", "properties": { "name": "JOHNSON C SMITH UNIVERSITY", "city": "CHARLOTTE", "county": "MECKLENBURG", "enrollment": 1404, "id2020": "yes", "id2023": "yes", "hbcu": "yes", "cc": "no", "address": "100 Beatties Ford Rd, Charlotte, NC 28216", "phone": "(704) 378-1000", "website": "https://www.jcsu.edu/", "idnot2023": "no", "id2025": "no", "idnot2025": "yes" }, "geometry": { "type": "Point", "coordinates": [ -80.858346109984723, 35.241941049604037 ] } },
{ "type": "Feature", "properties": { "name": "JOHNSON AND WALES UNIVERSITY - CHARLOTTE", "city": "CHARLOTTE", "county": "MECKLENBURG", "enrollment": 2156, "id2020": "no", "id2023": "no", "hbcu": "no", "cc": "no", "address": "801 W Trade St, Charlotte, NC 28202", "phone": "866-598-2427", "website": "https://www.jwu.edu/campuses/charlotte/?", "idnot2023": "yes", "id2025": "no", "idnot2025": "yes" }, "geometry": { "type": "Point", "coordinates": [ -80.851836397803226, 35.233049491881928 ] } },
{ "type": "Feature", "properties": { "name": "UNIVERSITY OF NORTH CAROLINA AT CHAPEL HILL<br><i>Note: Physical ID cards only</i>", "city": "CHAPEL HILL", "county": "ORANGE", "enrollment": 27276, "id2020": "yes", "id2023": "yes", "hbcu": "no", "cc": "no", "address": "Chapel Hill, NC", "phone": "(919) 962-2211", "website": "https://www.unc.edu/", "idnot2023": "no", "id2025": "yes", "idnot2025": "no" }, "geometry": { "type": "Point", "coordinates": [ -79.051099022837164, 35.911697868263666 ] } },
{ "type": "Feature", "properties": { "name": "WILSON TECHNICAL COMMUNITY COLLEGE", "city": "WILSON", "county": "WILSON", "enrollment": 1925, "id2020": "no", "id2023": "yes", "hbcu": "no", "cc": "yes", "address": "902 Herring Ave E, Wilson, NC 27893", "phone": "(252) 291-1195", "website": "https://www.wilsoncc.edu/", "idnot2023": "no", "id2025": "yes", "idnot2025": "no" }, "geometry": { "type": "Point", "coordinates": [ -77.895814555165913, 35.730391306989006 ] } },
{ "type": "Feature", "properties": { "name": "LENOIR-RHYNE COLLEGE", "city": "HICKORY", "county": "CATAWBA", "enrollment": 1561, "id2020": "no", "id2023": "yes", "hbcu": "no", "cc": "no", "address": "625 7th Ave Pl NE, Hickory, NC 28601", "phone": "(828) 328-1741", "website": "https://www.lr.edu/", "idnot2023": "no", "id2025": "yes", "idnot2025": "no" }, "geometry": { "type": "Point", "coordinates": [ -81.326631858956077, 35.738414568844952 ] } },
{ "type": "Feature", "properties": { "name": "ELON UNIVERSITY", "city": "ELON", "county": "ALAMANCE", "enrollment": 4956, "id2020": "yes", "id2023": "yes", "hbcu": "no", "cc": "no", "address": "100 Campus Dr, Elon, NC 27244", "phone": "(336) 278-3566", "website": "https://www.elon.edu/", "idnot2023": "no", "id2025": "yes", "idnot2025": "no" }, "geometry": { "type": "Point", "coordinates": [ -79.510655221173579, 36.103048216020909 ] } },
{ "type": "Feature", "properties": { "name": "BARBER-SCOTIA COLLEGE", "city": "CONCORD", "county": "CABARRUS", "enrollment": 0, "id2020": "no", "id2023": "no", "hbcu": "no", "cc": "no", "address": "NA", "phone": "NA", "website": "NA", "idnot2023": "yes", "id2025": "no", "idnot2025": "yes" }, "geometry": { "type": "Point", "coordinates": [ -80.585486235246435, 35.407056128147026 ] } },
{ "type": "Feature", "properties": { "name": "SOUTHEASTERN BAPTIST THEOLOGICAL SEMINARY", "city": "WAKE FOREST", "county": "WAKE", "enrollment": 0, "id2020": "yes", "id2023": "no", "hbcu": "no", "cc": "no", "address": "NA", "phone": "NA", "website": "NA", "idnot2023": "yes", "id2025": "no", "idnot2025": "yes" }, "geometry": { "type": "Point", "coordinates": [ -78.514325205502701, 35.98083090737876 ] } },
{ "type": "Feature", "properties": { "name": "SAMPSON COMMUNITY COLLEGE", "city": "CLINTON", "county": "SAMPSON", "enrollment": 1452, "id2020": "no", "id2023": "no", "hbcu": "no", "cc": "yes", "address": "1801 Sunset Ave, Clinton, NC 28328", "phone": "(910) 592-8081", "website": "https://www.sampsoncc.edu/", "idnot2023": "yes", "id2025": "no", "idnot2025": "yes" }, "geometry": { "type": "Point", "coordinates": [ -78.359785703083602, 34.991575258983161 ] } },
{ "type": "Feature", "properties": { "name": "ROWAN-CABARRUS COMMUNITY COLLEGE - NORTH CAMPUS", "city": "SALISBURY", "county": "ROWAN", "enrollment": 5235, "id2020": "yes", "id2023": "yes", "hbcu": "no", "cc": "yes", "address": "1333 Jake Alexander Blvd S, Salisbury, NC 28146", "phone": "(704) 216-7222", "website": "https://www.rccc.edu/", "idnot2023": "no", "id2025": "yes", "idnot2025": "no" }, "geometry": { "type": "Point", "coordinates": [ -80.476815270651613, 35.641225701854538 ] } },
{ "type": "Feature", "properties": { "name": "EAST CAROLINA UNIVERSITY", "city": "GREENVILLE", "county": "PITT", "enrollment": 23164, "id2020": "yes", "id2023": "yes", "hbcu": "no", "cc": "no", "address": "E 5th St, Greenville, NC 27858", "phone": "(252) 328-6131", "website": "https://www.ecu.edu/", "idnot2023": "no", "id2025": "yes", "idnot2025": "no" }, "geometry": { "type": "Point", "coordinates": [ -77.370582414260255, 35.610377755375559 ] } },
{ "type": "Feature", "properties": { "name": "PIEDMONT COMMUNITY COLLEGE", "city": "ROXBORO", "county": "PERSON", "enrollment": 2594, "id2020": "yes", "id2023": "yes", "hbcu": "no", "cc": "yes", "address": "1715 College Dr, Roxboro, NC 27573", "phone": "(336) 599-1181", "website": "https://www.piedmontcc.edu/", "idnot2023": "no", "id2025": "yes", "idnot2025": "no" }, "geometry": { "type": "Point", "coordinates": [ -78.979401785987392, 36.431219632214557 ] } },
{ "type": "Feature", "properties": { "name": "ROCKINGHAM COMMUNITY COLLEGE", "city": "REIDSVILLE", "county": "ROCKINGHAM", "enrollment": 2055, "id2020": "no", "id2023": "no", "hbcu": "no", "cc": "yes", "address": "215 Wrenn Memorial Rd, Wentworth, NC 27375", "phone": "(336) 342-4261", "website": "https://www.rockinghamcc.edu/", "idnot2023": "yes", "id2025": "no", "idnot2025": "yes" }, "geometry": { "type": "Point", "coordinates": [ -79.755495982830652, 36.387699060072762 ] } },
{ "type": "Feature", "properties": { "name": "MCDOWELL TECHNICAL COMMUNITY COLLEGE", "city": "MARION", "county": "MCDOWELL", "enrollment": 1209, "id2020": "no", "id2023": "yes", "hbcu": "no", "cc": "yes", "address": "54 College Dr, Marion, NC 28752", "phone": "(828) 652-6021", "website": "https://www.mcdowelltech.edu/", "idnot2023": "no", "id2025": "no", "idnot2025": "yes" }, "geometry": { "type": "Point", "coordinates": [ -81.961156053115744, 35.656434664963314 ] } },
{ "type": "Feature", "properties": { "name": "LENOIR COMMUNITY COLLEGE", "city": "KINSTON", "county": "LENOIR", "enrollment": 2579, "id2020": "no", "id2023": "no", "hbcu": "no", "cc": "yes", "address": "231 North Carolina Hwy 58, Kinston, NC 28504", "phone": "(252) 527-6223", "website": "https://www.lenoircc.edu/", "idnot2023": "yes", "id2025": "no", "idnot2025": "yes" }, "geometry": { "type": "Point", "coordinates": [ -77.581774264054303, 35.252309145521828 ] } },
{ "type": "Feature", "properties": { "name": "JOHNSTON COMMUNITY COLLEGE", "city": "SMITHFIELD", "county": "JOHNSTON", "enrollment": 4095, "id2020": "no", "id2023": "no", "hbcu": "no", "cc": "yes", "address": "245 College Rd, Smithfield, NC 27577", "phone": "(919) 934-3051", "website": "https://www.johnstoncc.edu/", "idnot2023": "yes", "id2025": "no", "idnot2025": "yes" }, "geometry": { "type": "Point", "coordinates": [ -78.331171634127614, 35.503577371416256 ] } },
{ "type": "Feature", "properties": { "name": "NORTH CAROLINA SCHOOL OF THE ARTS", "city": "WINSTON SALEM", "county": "FORSYTH", "enrollment": 829, "id2020": "no", "id2023": "yes", "hbcu": "no", "cc": "no", "address": "1533 S Main St, Winston-Salem, NC 27127", "phone": "(336) 770-3290", "website": "https://www.uncsa.edu/", "idnot2023": "no", "id2025": "yes", "idnot2025": "no" }, "geometry": { "type": "Point", "coordinates": [ -80.239870111820252, 36.076840649015658 ] } },
{ "type": "Feature", "properties": { "name": "HALIFAX COMMUNITY COLLEGE", "city": "WELDON", "county": "HALIFAX", "enrollment": 1484, "id2020": "yes", "id2023": "yes", "hbcu": "no", "cc": "yes", "address": "100 College Dr, Weldon, NC 27890", "phone": "(252) 536-2551", "website": "https://www.halifaxcc.edu/", "idnot2023": "no", "id2025": "yes", "idnot2025": "no" }, "geometry": { "type": "Point", "coordinates": [ -77.619388694738888, 36.428527056706862 ] } },
{ "type": "Feature", "properties": { "name": "UNIVERSITY OF NORTH CAROLINA AT GREENSBORO<br><i>Note: Physical ID cards only</i>", "city": "GREENSBORO", "county": "GUILFORD", "enrollment": 16147, "id2020": "yes", "id2023": "yes", "hbcu": "no", "cc": "no", "address": "1400 Spring Garden St, Greensboro, NC 27412", "phone": "(336) 334-5000", "website": "https://www.uncg.edu/", "idnot2023": "no", "id2025": "yes", "idnot2025": "no" }, "geometry": { "type": "Point", "coordinates": [ -79.80585203535442, 36.06679462216178 ] } },
{ "type": "Feature", "properties": { "name": "UNIVERSITY OF NORTH CAROLINA AT CHARLOTTE<br><i>Note: Physical ID cards only</i>", "city": "CHARLOTTE", "county": "MECKLENBURG", "enrollment": 20772, "id2020": "yes", "id2023": "yes", "hbcu": "no", "cc": "no", "address": "9201 University City Blvd, Charlotte, NC 28223", "phone": "(704) 687-8622", "website": "https://www.charlotte.edu/", "idnot2023": "no", "id2025": "yes", "idnot2025": "no" }, "geometry": { "type": "Point", "coordinates": [ -80.72911107342604, 35.302983549010946 ] } },
{ "type": "Feature", "properties": { "name": "TRI-COUNTY COMMUNITY COLLEGE", "city": "MURPHY", "county": "CHEROKEE", "enrollment": 1119, "id2020": "no", "id2023": "no", "hbcu": "no", "cc": "yes", "address": "21 Campus Circle Crisp Building, Murphy, NC 28906", "phone": "(828) 837-6810", "website": "https://www.tricountycc.edu/", "idnot2023": "yes", "id2025": "no", "idnot2025": "yes" }, "geometry": { "type": "Point", "coordinates": [ -83.965033519508879, 35.06780214960547 ] } },
{ "type": "Feature", "properties": { "name": "ISOTHERMAL COMMUNITY COLLEGE", "city": "SPINDALE", "county": "RUTHERFORD", "enrollment": 2124, "id2020": "yes", "id2023": "yes", "hbcu": "no", "cc": "yes", "address": "286 I C C Loop Rd, Spindale, NC 28160", "phone": "(828) 286-3636", "website": "https://www.isothermal.edu/", "idnot2023": "no", "id2025": "yes", "idnot2025": "no" }, "geometry": { "type": "Point", "coordinates": [ -81.913342487854536, 35.337948712652299 ] } },
{ "type": "Feature", "properties": { "name": "NORTH CAROLINA AGRICULTURE AND TECHNICAL STATE UNIVERSITY", "city": "GREENSBORO", "county": "GUILFORD", "enrollment": 11103, "id2020": "yes", "id2023": "yes", "hbcu": "yes", "cc": "no", "address": "1601 E Market St, Greensboro, NC 27411", "phone": "(336) 334-7500", "website": "https://www.ncat.edu/", "idnot2023": "no", "id2025": "yes", "idnot2025": "no" }, "geometry": { "type": "Point", "coordinates": [ -79.773482192561573, 36.072132856225082 ] } }
]
}
